{
  "1": [
    { "nombre": "BAUZA", "direccion": "SARMIENTO 2599", "telefono": "2234511243", "lat": -38.0115813, "lng": -57.5428163 },
    { "nombre": "DEL CUETO", "direccion": "12 DE OCTUBRE 5054", "telefono": "2234809713", "lat": -38.0315841, "lng": -57.5617076 },
    { "nombre": "NUEVA CORDOBA SCS", "direccion": "CORDOBA 4546", "telefono": "2234941294", "lat": -38.0222089, "lng": -57.5652821 },
    { "nombre": "FERNANDEZ", "direccion": "TEJEDOR 298", "telefono": "2234728768", "lat": -37.9711924, "lng": -57.5583845 },
    { "nombre": "FRASSON", "direccion": "ARTURO ALIO 1195", "telefono": "2234787253", "lat": -37.9708143, "lng": -57.5919148 },
    { "nombre": "MITRE", "direccion": "COLON 2690", "telefono": "2235410471", "lat": -38.0032018, "lng": -57.5511151 },
    { "nombre": "MOLINA", "direccion": "SAN JUAN 1299", "telefono": "2234740039", "lat": -37.98782, "lng": -57.560384 },
    { "nombre": "PIZZOLO", "direccion": "FORTUNATO DE LA PLAZA 3658", "telefono": "2236703020", "lat": -38.0240168, "lng": -57.5921893 },
    { "nombre": "PREVILEY", "direccion": "PERALTA RAMOS 2413", "telefono": "2235064692", "lat": -38.0354627, "lng": -57.5912992 }
  ],
  "2": [
    { "nombre": "CORAL S.C.S.", "direccion": "INDEPENDENCIA 874", "telefono": "2234743111", "lat": -37.9896524, "lng": -57.5473864 },
    { "nombre": "DOMINGUEZ LAY", "direccion": "CARLOS TEJEDOR 3627", "telefono": "2234548666", "lat": -37.9447726, "lng": -57.5366776 },
    { "nombre": "GILARDONI", "direccion": "CALLE 0 Y CALLE 817, CHAPADMALAL", "telefono": "2291510527", "lat": -38.205651816424975, "lng": -57.696127063540224 },
    { "nombre": "ITALIANA", "direccion": "20 de SEPTIEMBRE 1678", "telefono": "2234730178", "lat": -37.9941475, "lng": -57.5567449 },
    { "nombre": "MITRE", "direccion": "COLON 2690", "telefono": "2235410471", "lat": -38.0032018, "lng": -57.5511151 },
    { "nombre": "MONTERIOS SCS", "direccion": "COLON 4986", "telefono": "2234727980", "lat": -37.9914879, "lng": -57.5741281 },
    { "nombre": "MORON", "direccion": "LURO 5802", "telefono": "2234783056", "lat": -37.9823676, "lng": -57.578826 },
    { "nombre": "PAZ", "direccion": "TALCAHUANO 793", "telefono": "2234823985", "lat": -38.0282159, "lng": -57.5724288 },
    { "nombre": "PHARMADIET S.C.S.", "direccion": "GÜEMES 3185", "telefono": "2234518563", "lat": -38.0177513, "lng": -57.54356 },
    { "nombre": "RM SCS", "direccion": "CONSTITUCION 7508", "telefono": "2234712727", "lat": -37.961802, "lng": -57.5467823 },
    { "nombre": "VIDA", "direccion": "CONSTITUCION 5232", "telefono": "2234790101", "lat": -37.9644575, "lng": -57.556156 }
  ],
  "3": [
    { "nombre": "BADANEZ SCS", "direccion": "SAN MARTIN 2149", "telefono": "2235510731", "lat": -38.0017219, "lng": -57.5422496 },
    { "nombre": "CASTORINA", "direccion": "FORTUNATO DE LA PLAZA 2657", "telefono": "2235736459", "lat": -38.05776981214138, "lng": -57.55377404499346 },
    { "nombre": "DANTE", "direccion": "MORENO 3602", "telefono": "2234943337", "lat": -37.9967438, "lng": -57.5591433 },
    { "nombre": "EXPRESS MDQ S.C.S.", "direccion": "FALUCHO 1602", "telefono": "2235193304", "lat": -38.010138, "lng": -57.541767 },
    { "nombre": "LA PERLA", "direccion": "ESPAÑA 1003", "telefono": "2235065049", "lat": -37.9891797, "lng": -57.5516655 },
    { "nombre": "LUNADELABRAH SCS", "direccion": "INDEPENDENCIA 3802", "telefono": "2234755524", "lat": -38.013268, "lng": -57.566507 },
    { "nombre": "MITRE", "direccion": "COLON 2690", "telefono": "2235410471", "lat": -38.0032018, "lng": -57.5511151 },
    { "nombre": "PHARMAVIP", "direccion": "MARIO BRAVO 3504", "telefono": "2235798821", "lat": -38.0605518, "lng": -57.5714546 },
    { "nombre": "PUEYRREDON III SCS", "direccion": "JUAN B. JUSTO 1846", "telefono": "2234894040", "lat": -38.0282022, "lng": -57.5592089 },
    { "nombre": "SACK", "direccion": "ALBERTI 6567", "telefono": "2235993771", "lat": -37.986453, "lng": -57.5925114 }
  ],
  "4": [
    { "nombre": "DEL BARRIO S.C.S.", "direccion": "JARA 3290", "telefono": "2234755685", "lat": -37.9998812, "lng": -57.5811586 },
    { "nombre": "ELBEY Y FARINA S.C.S.", "direccion": "COLON 7279", "telefono": "2234702524", "lat": -37.9796525, "lng": -57.5970067 },
    { "nombre": "FRONTINI", "direccion": "12 DE OCTUBRE 5362", "telefono": "2234820421", "lat": -38.0293353, "lng": -57.5647213 },
    { "nombre": "GALILEO SUR SCS", "direccion": "MARIO BRAVO 502", "telefono": "2236185741", "lat": -38.080397429177125, "lng": -57.545799070821715 },
    { "nombre": "GUEMES", "direccion": "GASCON 1299", "telefono": "2233522656", "lat": -38.012461, "lng": -57.53892 },
    { "nombre": "M.R.L. FARMACIA S.C.S.", "direccion": "CONSTITUCION 4793", "telefono": "2234713000", "lat": -37.9666176, "lng": -57.5512231 },
    { "nombre": "MITRE", "direccion": "COLON 2690", "telefono": "2235410471", "lat": -38.0032018, "lng": -57.5511151 },
    { "nombre": "MOBILIA", "direccion": "PRESIDENTE PERON 10419 BATAN", "telefono": "2236344967", "lat": -38.007110559678104, "lng": -57.71559646563051 },
    { "nombre": "NVA FCIA LUJAN D.L.ANGELES SCS", "direccion": "FORTUNATO DE LA PLAZA 6992", "telefono": "2233465521", "lat": -38.0240168, "lng": -57.5921893 },
    { "nombre": "PALKIN", "direccion": "INDEPENDENCIA 3501", "telefono": "2235589900", "lat": -38.010806, "lng": -57.564819 },
    { "nombre": "SAN JUAN S.C.S.", "direccion": "BELGRANO 4250", "telefono": "2234725920", "lat": -37.9926957, "lng": -57.5648588 }
  ],
  "5": [
    { "nombre": "GARCIA BORDENAVE", "direccion": "JARA 1842", "telefono": "2235847235", "lat": -37.988439, "lng": -57.5718729 },
    { "nombre": "GUEVARA", "direccion": "SAN JUAN 381", "telefono": "2234732109", "lat": -37.9805174, "lng": -57.5544806 },
    { "nombre": "HERRERA", "direccion": "EDISON 2601", "telefono": "2235353340", "lat": -38.056571, "lng": -57.566558 },
    { "nombre": "MALEN", "direccion": "CATAMARCA 3201", "telefono": "2234732646", "lat": -38.0089513, "lng": -57.5617587 },
    { "nombre": "MARTIGNONE", "direccion": "JUAN B. JUSTO 1601", "telefono": "2234805295", "lat": -38.029462, "lng": -57.557152 },
    { "nombre": "MITRE", "direccion": "COLON 2690", "telefono": "2235410471", "lat": -38.0032018, "lng": -57.5511151 },
    { "nombre": "PHARMAPORT S.C.S.", "direccion": "12 DE OCTUBRE 3185", "telefono": "2234895735", "lat": -38.0436051, "lng": -57.5453247 },
    { "nombre": "PHARMARURAL SCS", "direccion": "RUTA NACIONAL 226 KM 16.5, EL COYUNCO", "telefono": "2233540982", "lat": -37.914035455861445, "lng": -57.74386664377539 },
    { "nombre": "SOICH ALAIN", "direccion": "JACINTO PERALTA RAMOS 2101", "telefono": "2236910038", "lat": -38.033117758542815, "lng": -57.58892837568081 },
    { "nombre": "TEJEDOR 381 SCS", "direccion": "TEJEDOR 581", "telefono": "2234713066", "lat": -37.9690869, "lng": -57.5561915 }
  ],
  "6": [
    { "nombre": "ANGELUCCI", "direccion": "JUAN B. JUSTO 3200", "telefono": "2235648000", "lat": -38.019141, "lng": -57.571212 },
    { "nombre": "ARANDA", "direccion": "LIBERTAD 5579", "telefono": "2234750052", "lat": -37.9784996, "lng": -57.5721728 },
    { "nombre": "BOSQUE GRANDE S.C.S.", "direccion": "VERTIZ 9162", "telefono": "2236008877", "lat": -38.0095643, "lng": -57.6046053 },
    { "nombre": "FARMAHUINCO SCS", "direccion": "VERTIZ 4282", "telefono": "2235314718", "lat": -38.0420059, "lng": -57.5615828 },
    { "nombre": "SOCIAL LURO SCS", "direccion": "LURO 3499", "telefono": "2234730287", "lat": -37.994007, "lng": -57.55515 },
    { "nombre": "LASSERRE", "direccion": "CARLOS TEJEDOR 2618", "telefono": "2233123880", "lat": -37.9525845, "lng": -57.5433028 },
    { "nombre": "MARIO SIMINI", "direccion": "LAS HERAS 3010", "telefono": "2234939265", "lat": -38.0145619, "lng": -57.5463672 },
    { "nombre": "MITRE", "direccion": "COLON 2690", "telefono": "2235410471", "lat": -38.0032018, "lng": -57.5511151 },
    { "nombre": "NUEVA CONSTITUCION S.C.S.", "direccion": "CONSTITUCION 6679", "telefono": "2234567991", "lat": -37.9570142, "lng": -57.5702233 },
    { "nombre": "SERI", "direccion": "SAN JUAN 702", "telefono": "2233528606", "lat": -37.983309, "lng": -57.556412 },
    { "nombre": "STOLAR", "direccion": "ALBERTI 6001", "telefono": "2234774811", "lat": -37.989245, "lng": -57.587057 }
  ],
  "7": [
    { "nombre": "ABALLAY", "direccion": "PERALTA RAMOS 821", "telefono": "2234815223", "lat": -38.0245296, "lng": -57.5781011 },
    { "nombre": "CRISTI SCS", "direccion": "LURO 3804", "telefono": "2235767649", "lat": -37.9924714, "lng": -57.558681 },
    { "nombre": "FARM.CONSTITUCION LASSALLE", "direccion": "CONSTITUCION 6995", "telefono": "2234716464", "lat": -37.9554172, "lng": -57.573378 },
    { "nombre": "FARMACIA SE.AD.HE", "direccion": "JUAN B. JUSTO 5402", "telefono": "2236933753", "lat": -38.0241058, "lng": -57.565134 },
    { "nombre": "FARMACIA SERRAT", "direccion": "12 DE OCTUBRE 3792", "telefono": "2235449668", "lat": -38.0397895, "lng": -57.5508151 },
    { "nombre": "GRIMALDI DIEZ", "direccion": "RODRIGUEZ PEÑA 1289", "telefono": "2233450267", "lat": -38.019609, "lng": -57.5445884 },
    { "nombre": "MENDELEIV SUR SCS", "direccion": "COLON 6699", "telefono": "2236865638", "lat": -37.982614, "lng": -57.591149 },
    { "nombre": "MITRE", "direccion": "COLON 2690", "telefono": "2235410471", "lat": -38.0032018, "lng": -57.5511151 },
    { "nombre": "RIMATU SCS", "direccion": "SICILIA 1474", "telefono": "2234840713", "lat": -38.0532431, "lng": -57.569103 },
    { "nombre": "RIQUELME", "direccion": "20 DE SEPTIEMBRE 399", "telefono": "2233475520", "lat": -37.983634, "lng": -57.548591 },
    { "nombre": "VILLAFRANCA", "direccion": "LIBERTAD 7693", "telefono": "2235399462", "lat": -37.9676341, "lng": -57.5934032 }
  ],
  "8": [
    { "nombre": "AVENIDA", "direccion": "LIBERTAD 4490", "telefono": "2234735863", "lat": -37.9842489, "lng": -57.5613108 },
    { "nombre": "COPAL", "direccion": "SAN JUAN 2998", "telefono": "2236532086", "lat": -38.0016409, "lng": -57.5712472 },
    { "nombre": "DEL LABRADOR SCS", "direccion": "TUCUMAN 2853", "telefono": "2234913241", "lat": -38.0116278, "lng": -57.5485422 },
    { "nombre": "FCIA NUEVA PLAZA II SCS", "direccion": "CONSTITUCION 5702", "telefono": "2234715757", "lat": -37.9620222, "lng": -57.5609167 },
    { "nombre": "FLORES S.C.S.", "direccion": "LURO 6501", "telefono": "2234813387", "lat": -37.978493, "lng": -57.5854595 },
    { "nombre": "FRESCO", "direccion": "CERRITO 1512", "telefono": "2236542256", "lat": -38.0414238, "lng": -57.5676474 },
    { "nombre": "GOMEZ", "direccion": "ALVARADO 2318", "telefono": "2236260034", "lat": -38.0112762, "lng": -57.552722 },
    { "nombre": "MAMMANA ALBERTO", "direccion": "CHILE 2987", "telefono": "2234814382", "lat": -37.995371, "lng": -57.5835058 },
    { "nombre": "MITRE", "direccion": "COLON 2690", "telefono": "2235410471", "lat": -38.0032018, "lng": -57.5511151 },
    { "nombre": "RAMA PRE 05 SCS", "direccion": "TALCAHUANO 2002", "telefono": "2235422050", "lat": -38.036813, "lng": -57.582445 },
    { "nombre": "VARA", "direccion": "DIAGONAL ESTADOS UNIDOS 779", "telefono": "2235808030", "lat": -38.0922369, "lng": -57.5543932 }
  ],
  "9": [
    { "nombre": "25 DE MAYO", "direccion": "25 DE MAYO 3610", "telefono": "2236410479", "lat": -37.992646, "lng": -57.5559795 },
    { "nombre": "CARRIZO", "direccion": "RUTA NACIONAL 226 KM 16.5, EL COYUNCO", "telefono": "2235464734", "lat": -38.0170137, "lng": -57.5329116 },
    { "nombre": "KILDUFF", "direccion": "ALBERTI 1387", "telefono": "2234860599", "lat": -38.0127575, "lng": -57.5405068 },
    { "nombre": "LISSARRAGUE", "direccion": "AYACUCHO 4698", "telefono": "2236774797", "lat": -37.9807766, "lng": -57.561358 },
    { "nombre": "MITRE", "direccion": "COLON 2690", "telefono": "2235410471", "lat": -38.0032018, "lng": -57.5511151 },
    { "nombre": "MONTTI", "direccion": "TUCUMAN 3392", "telefono": "2235015346", "lat": -38.0159045, "lng": -57.5517061 },
    { "nombre": "ORTEGA FARMACEUTICA SCS", "direccion": "LURO 6900", "telefono": "2235401424", "lat": -37.9769789, "lng": -57.5893768 },
    { "nombre": "PRAMOS SCS", "direccion": "PERALTA RAMOS 402", "telefono": "2235577707", "lat": -38.0219212, "lng": -57.5746067 },
    { "nombre": "RODRIGUEZ SUSANA", "direccion": "DELLA PAOLERA 2040", "telefono": "2236695468", "lat": -37.9450073, "lng": -57.5710867 },
    { "nombre": "ZAMACZUK", "direccion": "JUAN B JUSTO 1302", "telefono": "2234809105", "lat": -38.031653, "lng": -57.5546193 }
  ],
  "10": [
    { "nombre": "ALLEMNA SCS", "direccion": "MARIO BRAVO 2067", "telefono": "2234841484", "lat": -38.06987679292323, "lng": -57.5584765670823 },
    { "nombre": "AMANCAR DE LAUMAR", "direccion": "11 DE SEPTIEMBRE 3783", "telefono": "2234388059", "lat": -37.9892537, "lng": -57.5554878 },
    { "nombre": "DELLA MAGGIORA", "direccion": "COLON 4101", "telefono": "2234723587", "lat": -37.995646, "lng": -57.565363 },
    { "nombre": "FARMALYF SCS", "direccion": "INDEPENDENCIA 4117", "telefono": "2234726788", "lat": -38.0156641, "lng": -57.56872 },
    { "nombre": "JARDIN DE LA SIERRA SCS", "direccion": "ARGENTINA 360", "telefono": "2234370421", "lat": -37.942305777916424, "lng": -57.777079231505446 },
    { "nombre": "JORGE RUIZ", "direccion": "JARA 1407", "telefono": "2234729609", "lat": -37.9848075, "lng": -57.5693092 },
    { "nombre": "MITRE", "direccion": "COLON 2690", "telefono": "2235410471", "lat": -38.0032018, "lng": -57.5511151 },
    { "nombre": "MURRAY", "direccion": "BELGRANO 3302", "telefono": "2234956623", "lat": -37.997426, "lng": -57.555548 },
    { "nombre": "PINOS DE ANCHORENA SCS", "direccion": "CONSTITUCION 6039", "telefono": "2234793333", "lat": -37.9601837, "lng": -57.5639647 },
    { "nombre": "POUSSET", "direccion": "ALVARADO 6579", "telefono": "2234783427", "lat": -37.9896779, "lng": -57.5953825 },
    { "nombre": "VALENTINI", "direccion": "JARA 3993", "telefono": "2234744588", "lat": -38.0052912, "lng": -57.5857945 },
    { "nombre": "VIZCAY", "direccion": "ALEM 3565", "telefono": "2234864449", "lat": -38.0264122, "lng": -57.5350699 }
  ],
  "11": [
    { "nombre": "AZCONEGUI", "direccion": "TALCAHUANO 399", "telefono": "2235634110", "lat": -38.025588, "lng": -57.569242 },
    { "nombre": "CANESSA", "direccion": "JUAN B. JUSTO 494", "telefono": "2234801616", "lat": -38.0370265, "lng": -57.547504 },
    { "nombre": "COMUFARMA S.C.S", "direccion": "RODRIGUEZ PEÑA 6628", "telefono": "2236285899", "lat": -37.9925506, "lng": -57.5984465 },
    { "nombre": "CUELLO", "direccion": "CORONEL SUAREZ 468", "telefono": "2233424688", "lat": -37.9729226, "lng": -57.5991623 },
    { "nombre": "FERRANDO", "direccion": "BALCARCE 2899", "telefono": "2234916617", "lat": -37.9930589, "lng": -57.5457484 },
    { "nombre": "GUIDI", "direccion": "RIVADAVIA 4466", "telefono": "2233044912", "lat": -37.9908711, "lng": -57.5664209 },
    { "nombre": "LAS HERAS", "direccion": "CALABRIA 9131", "telefono": "2236283542", "lat": -38.0191258, "lng": -57.615743 },
    { "nombre": "MITRE", "direccion": "COLON 2690", "telefono": "2235410471", "lat": -38.0032018, "lng": -57.5511151 },
    { "nombre": "OLIVERI", "direccion": "LURO 4102", "telefono": "2235721444", "lat": -37.9910325, "lng": -57.5616329 },
    { "nombre": "SENA", "direccion": "PATRICIO PERALTA RAMOS 3987", "telefono": "2234510422", "lat": -37.9975862, "lng": -57.5493965 },
    { "nombre": "TELLERIA", "direccion": "FORTUNATO DE LA PLAZA 4583", "telefono": "2236769086", "lat": -38.04527395977074, "lng": -57.57069856263675 },
    { "nombre": "VILLEGAS DE C.VILLEGAS", "direccion": "SAN JUAN 15", "telefono": "2234739489", "lat": -37.9777587, "lng": -57.5522513 }
  ],
  "12": [
    { "nombre": "ABALLAY", "direccion": "PERALTA RAMOS 821", "telefono": "2234815223", "lat": -38.0245296, "lng": -57.5781011 },
    { "nombre": "FARMARICHAR SCS", "direccion": "ALVARADO 5699", "telefono": "2234724494", "lat": -37.994076, "lng": -57.586337 },
    { "nombre": "FLIA PRE SCS", "direccion": "SAN MARTIN 5521", "telefono": "2233413929", "lat": -37.9844031, "lng": -57.5764276 },
    { "nombre": "LA BOTICA DE LOS TRONCOS", "direccion": "ALEM 3777", "telefono": "2236962133", "lat": -38.0280779, "lng": -57.5363768 },
    { "nombre": "LIZALDE", "direccion": "TEJEDOR 2156", "telefono": "2236024116", "lat": -37.9563103, "lng": -57.5463047 },
    { "nombre": "MELUCCI", "direccion": "LIBERTAD 4109", "telefono": "2234720605", "lat": -37.985793655195735, "lng": -57.557451015343176 },
    { "nombre": "MITRE", "direccion": "COLON 2690", "telefono": "2235410471", "lat": -38.0032018, "lng": -57.5511151 },
    { "nombre": "SAN JOSE", "direccion": "PUAN 1712", "telefono": "2234840213", "lat": -38.0655852, "lng": -57.5477515 },
    { "nombre": "SZPYRNAL SCS", "direccion": "RODRIGUEZ PEÑA 3695", "telefono": "2234763940", "lat": -38.0073981, "lng": -57.5687521 },
    { "nombre": "TROZZI", "direccion": "PERALTA RAMOS 1701", "telefono": "2233008488", "lat": -38.0305863, "lng": -57.5853834 },
    { "nombre": "VIDELA", "direccion": "18 262 CHAPADMALAL", "telefono": "2233545778", "lat": -38.03445180299243, "lng": -57.714510484874964 },
    { "nombre": "VITA", "direccion": "TEODORO BRONZINI 210", "telefono": "2235033528", "lat": -37.9712356, "lng": -57.5693342 }
  ],
  "13": [
    { "nombre": "FARMACIA BARRIO BELGRANO SCS", "direccion": "TRIPULANTES DEL FOURNIER 11012", "telefono": "2234653547", "lat": -37.99991249166657, "lng": -57.624114199999994 },
    { "nombre": "DEL AGUILA", "direccion": "LURO 4610", "telefono": "2234721830", "lat": -37.988433, "lng": -57.5666545 },
    { "nombre": "FARMACIA SUR SCS", "direccion": "COLON 5398", "telefono": "2234748777", "lat": -37.9893403, "lng": -57.5784351 },
    { "nombre": "GARCIA CASABAL", "direccion": "LURO 9615", "telefono": "2234871651", "lat": -37.9710562, "lng": -57.5529327 },
    { "nombre": "JARDIN DEL BOSQUE", "direccion": "MARIO BRAVO 2674", "telefono": "2235244020", "lat": -38.06590864824641, "lng": -57.564388225083896 },
    { "nombre": "JULIO RIADIGOS", "direccion": "CASTELLI 1311", "telefono": "2234518537", "lat": -38.0154187, "lng": -57.5418369 },
    { "nombre": "MITRE", "direccion": "COLON 2690", "telefono": "2235410471", "lat": -38.0032018, "lng": -57.5511151 },
    { "nombre": "OSCAR GARCIA", "direccion": "PERALTA RAMOS 1099", "telefono": "2234817471", "lat": -38.0262893, "lng": -57.5802107 },
    { "nombre": "PABLO SIMINI", "direccion": "CERRITO 285", "telefono": "2233530938", "lat": -38.0328269, "lng": -57.5576353 },
    { "nombre": "SAMPAOLESI", "direccion": "CORDOBA 3869", "telefono": "2234474443", "lat": -38.0166312, "lng": -57.5609935 },
    { "nombre": "TREJOMAR", "direccion": "STROBEL 5191", "telefono": "2234749549", "lat": -37.9709063, "lng": -57.5605575 }
  ],
  "14": [
    { "nombre": "ANDRES FRONTINI", "direccion": "JARA 42", "telefono": "2234711961", "lat": -37.9739867, "lng": -57.560144 },
    { "nombre": "FAILONI", "direccion": "FELIX U. CAMET 123", "telefono": "2234736352", "lat": -37.9547141, "lng": -57.5378543 },
    { "nombre": "FLORES PRADO", "direccion": "BELTRAN 5688", "telefono": "2235313404", "lat": -37.93983243373877, "lng": -57.54584378964953 },
    { "nombre": "MITRE", "direccion": "COLON 2690", "telefono": "2235410471", "lat": -38.0032018, "lng": -57.5511151 },
    { "nombre": "NUEVA EDISON FARMACEUTICA", "direccion": "EDISON 1175", "telefono": "2236701400", "lat": -38.0466786, "lng": -57.5546036 },
    { "nombre": "OMBRONI", "direccion": "INDEPENDENCIA 3002", "telefono": "2233521496", "lat": -38.00695, "lng": -57.561358 },
    { "nombre": "PENNISI FORELL", "direccion": "FORTUNATO DE LA PLAZA 3237", "telefono": "2236266333", "lat": -38.0240168, "lng": -57.5921893 },
    { "nombre": "PREMEDICA SCS", "direccion": "RICARDO BALBIN 2399, BATAN", "telefono": "2233777777", "lat": -38.004033917951546, "lng": -57.69905468487615 },
    { "nombre": "RIADIGOS", "direccion": "JUAN B. JUSTO 2600", "telefono": "2234953022", "lat": -38.023148, "lng": -57.5658759 },
    { "nombre": "RODRIGUEZ", "direccion": "JARA 2598", "telefono": "2235160637", "lat": -38.00583175, "lng": -57.54730439298297 },
    { "nombre": "ROIG", "direccion": "LURO 3219", "telefono": "2234916427", "lat": -37.9953299, "lng": -57.5525393 }
  ],
  "15": [
    { "nombre": "CASTRO MARIO", "direccion": "RODRIGUEZ PEÑA 2535", "telefono": "2234937823", "lat": -38.0132753, "lng": -57.5572296 },
    { "nombre": "DEL PUERTO", "direccion": "12 DE OCTUBRE 3499", "telefono": "2234800271", "lat": -38.041584, "lng": -57.548029 },
    { "nombre": "FALDINA", "direccion": "LURO 7498", "telefono": "2233467859", "lat": -37.9738219, "lng": -57.5955756 },
    { "nombre": "FEBA S.C.S.", "direccion": "COLON 9102", "telefono": "2234870670", "lat": -38.0012135, "lng": -57.5546559 },
    { "nombre": "FERRERO", "direccion": "FORTUNATO DE LA PLAZA 6304", "telefono": "2235362678", "lat": -38.0242957, "lng": -57.5915094 },
    { "nombre": "LOPEZ", "direccion": "25 DE MAYO 2999", "telefono": "2234951637", "lat": -37.99576, "lng": -57.549381 },
    { "nombre": "MARQUEZ", "direccion": "JARA 936", "telefono": "2234758219", "lat": -37.9810971, "lng": -57.5658929 },
    { "nombre": "MITRE", "direccion": "COLON 2690", "telefono": "2235410471", "lat": -38.0032018, "lng": -57.5511151 },
    { "nombre": "PEREIRA", "direccion": "CONSTITUCION 4375", "telefono": "2234790001", "lat": -37.9686771, "lng": -57.5471111 },
    { "nombre": "PIROLA", "direccion": "JUAN B. JUSTO 6736", "telefono": "2235393277", "lat": -37.9955369, "lng": -57.6024246 },
    { "nombre": "STECKINGER", "direccion": "RODRIGUEZ PEÑA 4727", "telefono": "2234721994", "lat": -38.0020921, "lng": -57.5792556 }
  ],
  "16": [
    { "nombre": "BADAMAR SCS", "direccion": "COLON 1399", "telefono": "2234515104", "lat": -38.0095162, "lng": -57.5378622 },
    { "nombre": "BUSTOS", "direccion": "MATHEU 3673", "telefono": "2234724031", "lat": -38.0106399, "lng": -57.5711313 },
    { "nombre": "DEL INTERZONAL", "direccion": "JUAN B. JUSTO 6404", "telefono": "2235599679", "lat": -37.9977205, "lng": -57.599484 },
    
    { "nombre": "EL GROSELLAR", "direccion": "JOSE MANUEL ESTRADA 5610", "telefono": "2234562065", "lat": -37.9529455, "lng": -57.5522631 },
    { "nombre": "MAR DEL GOMEZ S.C.S.", "direccion": "JUAN B. JUSTO 2278", "telefono": "2234827037", "lat": -38.00066, "lng": -57.59506 },
    { "nombre": "MARTI", "direccion": "TEODORO BRONZINI 597", "telefono": "2235023596", "lat": -37.9740518, "lng": -57.5719354 },
    { "nombre": "MEDICI S.C.S.", "direccion": "RAWSON 4197", "telefono": "2234728758", "lat": -37.9993262, "lng": -57.5693148 },
    { "nombre": "MITRE", "direccion": "COLON 2690", "telefono": "2235410471", "lat": -38.0032018, "lng": -57.5511151 },
    { "nombre": "PEREIRA CECILIA", "direccion": "LURO 4824", "telefono": "2234760001", "lat": -37.9873869, "lng": -57.5687261 },
    { "nombre": "PHARMABEACH SCS", "direccion": "EDISON 1582", "telefono": "2235301393", "lat": -38.0495584, "lng": -57.5577039 },
    { "nombre": "PREVILEY KAI SCS", "direccion": "FORTUNATO DE LA PLAZA 5120", "telefono": "2233541521", "lat": -38.0240168, "lng": -57.5921893 }
  ]
}
